[
  {
    "business_id": "Pns2l4eNsfO8kk83dixA6A",
    "name": "Abby Rappoport, LAC, CMQ",
    "address": "1616 Chapala St, Ste 2",
    "city": "Santa Barbara",
    "state": "CA",
    "postal_code": "93101",
    "latitude": 34.4266787,
    "longitude": -119.7111968,
    "stars": 5.0,
    "review_count": 7,
    "is_open": 0,
    "attributes": { "ByAppointmentOnly": "True" },
    "categories": "Doctors, Toys, Sushi",
    "hours": null
  },
  {
    "business_id": "34g3psapdpdsggpspfg",
    "name": "Timmys Restraunt, LAC, CMQ",
    "address": "1616 Chapala St, Ste 2",
    "city": "Santa Barbara",
    "state": "CA",
    "postal_code": "93101",
    "latitude": 34.4266787,
    "longitude": -119.7111968,
    "stars": 5.0,
    "review_count": 7,
    "is_open": 0,
    "attributes": { "ByAppointmentOnly": "True" },
    "categories": "Doctors, Food",
    "hours": null
  },
  {
    "business_id": "mpf3x-BjTdTEA3yCZrAYPw",
    "name": "The UPS Store",
    "address": "87 Grasso Plaza Shopping Center",
    "city": "Affton",
    "state": "MO",
    "postal_code": "63123",
    "latitude": 38.551126,
    "longitude": -90.335695,
    "stars": 3.0,
    "review_count": 15,
    "is_open": 1,
    "attributes": { "BusinessAcceptsCreditCards": "True" },
    "categories": "Doctors, Food",
    "hours": {
      "Monday": "0:0-0:0",
      "Tuesday": "8:0-18:30",
      "Wednesday": "8:0-18:30",
      "Thursday": "8:0-18:30",
      "Friday": "8:0-18:30",
      "Saturday": "8:0-14:0"
    }
  }
]